{
  "regions": [
    { "name": "москва", "lat": 55.7558, "lon": 37.6176, "aliases": ["г. москва"] },
    { "name": "санкт-петербург", "lat": 59.9311, "lon": 30.3609, "aliases": ["спб", "spb"] },
    { "name": "севастополь", "lat": 44.6167, "lon": 33.5254 },

    { "name": "республика адыгея", "lat": 44.6098, "lon": 40.1006, "aliases": ["адыгея"] },
    { "name": "республика алтай", "lat": 51.9581, "lon": 85.9603, "aliases": ["алтай республика"] },
    { "name": "республика башкортостан", "lat": 54.7388, "lon": 55.9721, "aliases": ["башкортостан", "башкортостан республика"] },
    { "name": "республика бурятия", "lat": 51.8345, "lon": 107.5847, "aliases": ["бурятия", "бурятия республика"] },
    { "name": "республика дагестан", "lat": 42.9849, "lon": 47.5047, "aliases": ["дагестан", "дагестан республика"] },
    { "name": "республика ингушетия", "lat": 43.1739, "lon": 44.9997, "aliases": ["ингушетия"] },
    { "name": "кабардино-балкарская республика", "lat": 43.4845, "lon": 43.6071, "aliases": ["кабардино балкария"] },
    { "name": "республика калмыкия", "lat": 46.3083, "lon": 44.2708, "aliases": ["калмыкия"] },
    { "name": "карачаево-черкесская республика", "lat": 44.2269, "lon": 42.0468 },
    { "name": "республика карелия", "lat": 61.7860, "lon": 34.3469, "aliases": ["карелия", "карелия республика", "республика карелия"] },
    { "name": "республика коми", "lat": 61.6688, "lon": 50.8357, "aliases": ["коми", "коми республика", "р. коми"] },
    { "name": "республика крым", "lat": 44.9482, "lon": 34.1003, "aliases": ["крым"] },
    { "name": "республика марий эл", "lat": 56.6344, "lon": 47.8998, "aliases": ["марий эл республика", "р. марий эл"] },
    { "name": "республика мордовия", "lat": 54.1838, "lon": 45.1749, "aliases": ["мордовия республика", "мордовия"] },
    { "name": "республика саха (якутия)", "lat": 62.0355, "lon": 129.6755, "aliases": ["якутия", "саха /якутия/ республика"] },
    { "name": "республика северная осетия - алания", "lat": 43.0241, "lon": 44.6819, "aliases": ["северная осетия"] },
    { "name": "республика татарстан", "lat": 55.7887, "lon": 49.1221, "aliases": ["татарстан", "татарстан республика", "республика татарстан (татарстан)"] },
    { "name": "республика тыва", "lat": 51.7191, "lon": 94.4378, "aliases": ["тыва республика", "тува"] },
    { "name": "удмуртская республика", "lat": 56.8527, "lon": 53.2110, "aliases": ["удмуртия"] },
    { "name": "республика хакасия", "lat": 53.7211, "lon": 91.4424, "aliases": ["хакасия республика"] },
    { "name": "чеченская республика", "lat": 43.3180, "lon": 45.6982, "aliases": ["чечня"] },
    { "name": "чувашская республика", "lat": 56.1439, "lon": 47.2489, "aliases": ["чувашская республика - чувашия"] },

    { "name": "алтайский край", "lat": 53.3474, "lon": 83.7784 },
    { "name": "забайкальский край", "lat": 52.0340, "lon": 113.4994 },
    { "name": "камчатский край", "lat": 53.0370, "lon": 158.6559 },
    { "name": "краснодарский край", "lat": 45.0355, "lon": 38.9753 },
    { "name": "красноярский край", "lat": 56.0184, "lon": 92.8672 },
    { "name": "пермский край", "lat": 58.0105, "lon": 56.2502 },
    { "name": "приморский край", "lat": 43.1155, "lon": 131.8855 },
    { "name": "ставропольский край", "lat": 45.0433, "lon": 41.9691 },
    { "name": "хабаровский край", "lat": 48.4802, "lon": 135.0719 },

    { "name": "амурская область", "lat": 50.2907, "lon": 127.5272 },
    { "name": "архангельская область", "lat": 64.5399, "lon": 40.5158 },
    { "name": "астраханская область", "lat": 46.3479, "lon": 48.0336, "aliases": ["астраханская область"] },
    { "name": "белгородская область", "lat": 50.5954, "lon": 36.5873 },
    { "name": "брянская область", "lat": 53.2420, "lon": 34.3651 },
    { "name": "владимирская область", "lat": 56.1291, "lon": 40.4066 },
    { "name": "волгоградская область", "lat": 48.7071, "lon": 44.5169 },
    { "name": "вологодская область", "lat": 59.2239, "lon": 39.8830, "aliases": ["vo", "вологодская област"] },
    { "name": "воронежская область", "lat": 51.6608, "lon": 39.2003 },
    { "name": "ивановская область", "lat": 56.9995, "lon": 40.9739 },
    { "name": "иркутская область", "lat": 52.2869, "lon": 104.3050 },
    { "name": "калининградская область", "lat": 54.7104, "lon": 20.4522 },
    { "name": "калужская область", "lat": 54.5138, "lon": 36.2612 },
    { "name": "кемеровская область", "lat": 55.3550, "lon": 86.0873, "aliases": ["кузбасс"] },
    { "name": "кировская область", "lat": 58.6036, "lon": 49.6679, "aliases": ["кировская область"] },
    { "name": "костромская область", "lat": 57.7679, "lon": 40.9269 },
    { "name": "курганская область", "lat": 55.4444, "lon": 65.3161, "aliases": ["курганская область"] },
    { "name": "курская область", "lat": 51.7300, "lon": 36.1933 },
    { "name": "ленинградская область", "lat": 59.9391, "lon": 30.3158 },
    { "name": "липецкая область", "lat": 52.6103, "lon": 39.5946 },
    { "name": "магаданская область", "lat": 59.5682, "lon": 150.8085 },
    { "name": "московская область", "lat": 55.5043, "lon": 38.0354 },
    { "name": "мурманская область", "lat": 68.9585, "lon": 33.0827 },
    { "name": "нижегородская область", "lat": 56.2965, "lon": 43.9361 },
    { "name": "новгородская область", "lat": 58.5200, "lon": 31.2758 },
    { "name": "новосибирская область", "lat": 55.0302, "lon": 82.9204 },
    { "name": "омская область", "lat": 54.9914, "lon": 73.3645 },
    { "name": "оренбургская область", "lat": 51.7682, "lon": 55.0969, "aliases": ["оренбургская область"] },
    { "name": "орловская область", "lat": 52.9651, "lon": 36.0785 },
    { "name": "пензенская область", "lat": 53.1959, "lon": 45.0183, "aliases": ["пензенская область"] },
    { "name": "псковская область", "lat": 57.8194, "lon": 28.3318 },
    { "name": "ростовская область", "lat": 47.2357, "lon": 39.7015 },
    { "name": "рязанская область", "lat": 54.6269, "lon": 39.6916 },
    { "name": "самарская область", "lat": 53.1959, "lon": 50.1008 },
    { "name": "саратовская область", "lat": 51.5336, "lon": 46.0343 },
    { "name": "сахалинская область", "lat": 46.9591, "lon": 142.7380 },
    { "name": "свердловская область", "lat": 56.8389, "lon": 60.6057 },
    { "name": "смоленская область", "lat": 54.7826, "lon": 32.0453 },
    { "name": "тамбовская область", "lat": 52.7212, "lon": 41.4523 },
    { "name": "тверская область", "lat": 56.8596, "lon": 35.9119 },
    { "name": "томская область", "lat": 56.4846, "lon": 84.9482 },
    { "name": "тульская область", "lat": 54.1930, "lon": 37.6175 },
    { "name": "тюменская область", "lat": 57.1530, "lon": 65.5343 },
    { "name": "ульяновская область", "lat": 54.3142, "lon": 48.4031, "aliases": ["ульяновская область"] },
    { "name": "челябинская область", "lat": 55.1644, "lon": 61.4368 },
    { "name": "ярославская область", "lat": 57.6261, "lon": 39.8845 },

    { "name": "еврейская автономная область", "lat": 48.7946, "lon": 132.9239 },
    { "name": "ненецкий автономный округ", "lat": 67.6381, "lon": 53.0069 },
    { "name": "ханты-мансийский автономный округ - югра", "lat": 61.0042, "lon": 69.0019, "aliases": ["ханты-мансийский ао - югра автономный округ"] },
    { "name": "чукотский автономный округ", "lat": 64.7333, "lon": 177.5167 },
    { "name": "ямало-ненецкий автономный округ", "lat": 66.5300, "lon": 66.6019 },

    { "name": "россия", "lat": 55.7512, "lon": 37.6184 },
    { "name": "другой", "lat": 55.7512, "lon": 37.6184 },
    { "name": "минск", "lat": 53.9006, "lon": 27.5590 },
    { "name": "сеул", "lat": 37.5665, "lon": 126.9780 },
    { "name": "saxony", "lat": 51.0504, "lon": 13.7373 },
    { "name": "белград", "lat": 44.7866, "lon": 20.4489 },
    { "name": "кагул", "lat": 45.9042, "lon": 28.1890 },
    { "name": "западный казахстан", "lat": 51.2278, "lon": 51.3865 },
    { "name": "уусимаа", "lat": 60.1699, "lon": 24.9384 },
    { "name": "сковде", "lat": 58.3903, "lon": 13.8458 },
    { "name": "шевде", "lat": 58.3903, "lon": 13.8458 }
  ]
}
